[
  {
    "data": [
      {
        "id": 0,
        "city": "Jakarta Utara",
        "list": [
          {
            "name": "Shop&Drive - Artha Gading",
            "address": "Jl. Kelapa Nias Raya Blok. QE-1 Kav. No. 12, Kelapa Gading",
            "location": "Deretan Sport Mall"
          },
          {
            "name": "Shop&Drive - Hibrida",
            "address": "Jl. Kelapa Hibrida Raya Blok PD XIV No. 16-17",
            "location": "Pintu 3 Jl. Raya Pegangsaan Dua"
          },
          {
            "name": "Shop&Drive - Muara Karang",
            "address": "JL. Pluit Karang Utara Blok. A2 No. 171 A-B",
            "location": "Setelah belokan Pasar Ikan Muara Angke, ada di sebelah kanan"
          },
          {
            "name": "Shop&Drive - Pantai Indah Kapuk ",
            "address": "Jl. Pantai Indah Selatan I Ruko Elang Laut Boulevard Blok A No. 9, Kamal Muara",
            "location": "Dekat RS. Grand Family"
          },
          {
            "name": "Shop&Drive - Sunter 1",
            "address": "Jl. Danau Sunter Blok A1 Kavling 1",
            "location": "Depan Mall Sunter"
          },
          {
            "name": "Shop&Drive - Sunter 2",
            "address": "Jl. Raya Sunter Agung Podomoro Blok. E9 No. 22",
            "location": "Deretan RS. Ibu dan Anak Hermina"
          },
          {
            "name": "Shop&Drive - Sunter 3",
            "address": "Jl. Taman Sunter Indah Blok. HJ-2/15, Sunter Jaya",
            "location": "Sepanjang Ruko Taman Sunter Indah / BCA"
          },
          {
            "name": "Super Shop&Drive Kelapa Gading  ",
            "address": "Jl. Raya Boulevard Timur Blok ZA No.7 Kelapa Gading",
            "location": "Deretan Sekolah Al Azhar"
          },
          {
            "name": "Super Shop&Drive Kelapa Gading Baru",
            "address": "Jl.Boulevard Barat Blok LC-8 Kav No.1,Kelapa Gading Barat",
            "location": "Jakarta Utara"
          },
          {
            "name": "Super Shop&Drive Pluit",
            "address": "Jl. Pluit Utara No. 64,Jakarta Utara",
            "location": "Deretan cucian mobil United"
          }
        ]
      },
      {
        "id": 1,
        "city": "Jakarta Barat",
        "list": [
          {
            "name": "Shop&Drive - Citra Garden",
            "address": "Ruko Citra Garden II Blok H-2 No. 17, Cengkareng",
            "location": "Setelah Pasar Segar dari arah Tangerang"
          },
          {
            "name": "Shop&Drive - City Resort",
            "address": "Komplek Mutiara Taman Palem Blok D1 No. 68 (SD lama taman palem)",
            "location": "Belakang Mall Carefour Taman Palem, samping RSUD Cengkareng"
          },
          {
            "name": "Shop&Drive - Kebayoran Lama",
            "address": "Jl. Kebayoran Lama Raya No. 33 B",
            "location": "Rumah Sakit Permata Hijau ke kanan dari arah Kebun Jeruk"
          },
          {
            "name": "Shop&Drive - Kebun Jeruk",
            "address": "Jl. Panjang No. 15, Kebon Jeruk",
            "location": "Sebelum Wisma Relasi dari arah Kedoya"
          },
          {
            "name": "Shop&Drive - Kemanggisan",
            "address": "Jl. Kemanggisan Ilir Raya No. 26-G, Palmerah",
            "location": "Seberang Pom Bensin"
          },
          {
            "name": "Shop&Drive - Meruya Utara Baru",
            "address": "Jl. Meruya Utara No. 3 B, RT. 001 RW 001, Kembangan",
            "location": "Dekat Polsek Kembangan"
          },
          {
            "name": "Shop&Drive - Muwardi",
            "address": "Jl. DR. Muwardi No. 25, Grogol",
            "location": "Belakang Terminal Grogol"
          },
          {
            "name": "Shop&Drive - Pos Pengumben",
            "address": "Jl. Pos Pengumben Raya No. 3, Kebon Jeruk",
            "location": "Setelah lampu merah Kelapa II dari Jalan Panjang"
          },
          {
            "name": "Shop&Drive - Puri Kembangan",
            "address": "Jl. Kembangan Raya No. 11 A",
            "location": "Setelah Apartement Westting dari arah Pasar Puri"
          },
          {
            "name": "Shop&Drive - Semanan",
            "address": "Komplek Perumahan Taman Semanan Indah Blok G No. 3, Duri Kosambi",
            "location": "Setelah KFC, belok ke kiri"
          },
          {
            "name": "Shop&Drive - Taman Ratu",
            "address": "Komplek Perumahan Taman Ratu Blok. F1 No.5 Duri Kepa",
            "location": "Perempatan Taman Ratu"
          },
          {
            "name": "Shop&Drive - Taman Surya",
            "address": "Jl. Boulevard Taman Surya Blok K5 No.6, Perum Taman Surya 3",
            "location": "Bundaran Taman Surya, depan toko Total Buah"
          },
          {
            "name": "Shop&Drive - Tanjung Duren",
            "address": "Jl. Raya Tanjung Duren No. 15",
            "location": "Belakang BPK Penaburan"
          },
          {
            "name": "Shop&Drive Puri Indah, Jakarta Barat",
            "address": "Jl. Kembangan Raya No. 2A, RT.003 RW.001, Kembangan Utara",
            "location": ""
          },
          {
            "name": "Shop&Drive Tubagus Angke, Jakarta Barat",
            "address": "Jl. Tubagus Angke No. 26/4, Wijaya Kusuma- Jakarta Barat",
            "location": ""
          }
        ]
      },
      {
        "id": 2,
        "city": "Jakarta Selatan",
        "list": [
          {
            "name": "PS Shop&Drive - Gatot Subroto",
            "address": "Jl. Gatot Subroto Kav. 31 E, Kuningan - Setiabudi (SPBU 34.12902)",
            "location": "Samping Patra Jasa, seberang menara Jamsostek"
          },
          {
            "name": "Shop&Drive - Cipete",
            "address": "Jl. RS. Fatmawati No. 89 C, Cipete Utara",
            "location": "Sebelah Kantor Infomedia"
          },
          {
            "name": "Shop&Drive - Fatmawati",
            "address": "Jl. Fatmawati No. 41",
            "location": "Depan Wisma Ubut"
          },
          {
            "name": "Shop&Drive - Gandaria City",
            "address": "Jl. Sultan Iskandar Muda No.99 E, Kebayoran Lama Utara",
            "location": "Depan Mall Gandaria City"
          },
          {
            "name": "Shop&Drive - Lenteng Agung",
            "address": "Jl. Lenteng Agung Raya No. 12, Pasar Minggu",
            "location": "Setelah putaran Isip ke arah Depok"
          },
          {
            "name": "Shop&Drive - M. Kahfi",
            "address": "Jl. Moch. Kahfi I No. 1, Ciganjur",
            "location": "100 meter setelah pertigaan Brigif (depan cucian mobil Mayunda Motor)"
          },
          {
            "name": "Shop&Drive - M. Kahfi 2",
            "address": "Jl. Moh. Kahfi II No. 2, Ciganjur, Jagakarsa",
            "location": ""
          },
          {
            "name": "Shop&Drive - Mampang",
            "address": "Jl. Mampang Prapatan Raya 92 RT.006 RW.003",
            "location": "Sebelum Balai Hermina dari arah Ragunan"
          },
          {
            "name": "Shop&Drive - Pasar Minggu",
            "address": "Jl. Raya Pasar Minggu Km.19 No. 52",
            "location": "Samping Hotel Fiducia"
          },
          {
            "name": "Shop&Drive - Pondok Pinang",
            "address": "Jl. Ciputat Raya No. 15, Pondok Pinang",
            "location": "100 Meter setelah lampu merah Pondok Pinang ke arah Kebayoran Lama"
          },
          {
            "name": "Shop&Drive - Radio Dalam",
            "address": "Jl. Radio Dalam Raya No. 39",
            "location": "Sebelah AC Denso Kiki Jaya atau Hero Golf"
          },
          {
            "name": "Shop&Drive - Sahardjo Tebet",
            "address": "Jl. Dr. Sahardjo No. 125, Tebet",
            "location": "Depan/seberang Rumah Sakit Ibu Anak Budi Jaya"
          },
          {
            "name": "Shop&Drive - Tanah Kusir",
            "address": "Jl. Ciputat Raya No. 14 A, Kebayoran Lama Utara",
            "location": "Dari arah Pd. Pinang menuju ke Pasar Kebayoran Lama, sebelah kiri, 100 meter sebelum pertigaan Jl Bungur."
          },
          {
            "name": "Shop&Drive - Tebet",
            "address": "Jl. Tebet Barat Dalam Raya No. 4",
            "location": "Belakang Mc Donalds Tebet"
          },
          {
            "name": "Shop&Drive - Veteran",
            "address": "Jl. RC. Veteran No.33. Bintaro",
            "location": "Depan Kampus Trisakti"
          },
          {
            "name": "Shop&Drive - Warung Buncit 1",
            "address": "Jl. Warung Buncit Raya No. 14",
            "location": "Setelah Pejaten Village dari arah Mampang"
          },
          {
            "name": "Shop&Drive - Warung Buncit 2",
            "address": "Jl. Buncit Raya No. 23, Duren Tiga, Pancoran",
            "location": "Samping Seven Eleven Buncit, depan Total Buah"
          },
          {
            "name": "Shop&Drive - Wolter Monginsidi",
            "address": "Jl. Wolter Monginsidi No. 113, Kebayoran Baru",
            "location": "Dari arah Mampang, ambil ke arah Capt. Tendean. Sebelum lampu merah Santa, ada di sebelah kanan."
          },
          {
            "name": "Super Shop&Drive Ampera",
            "address": "Jl. Ampera Raya No.138 Ragunan",
            "location": "Samping Pengadilan Jakarta Selatan"
          }
        ]
      },
      {
        "id": 3,
        "city": "Jakarta Timur",
        "list": [
          {
            "name": "PS Shop&Drive - Cipinang",
            "address": "Jl. Raya Kalimalang. Tarum Barat (SPBU 34.134.20), Kel. Cipinang Muara RT.001 RW.013 Kec. Jatinegara",
            "location": "Di dalam SPBU Kalimalang, Dekat Sekolah Penabur"
          },
          {
            "name": "Shop&Drive - Ceger",
            "address": "Jl. Raya Ceger No. 21",
            "location": "50 meter dari depan Bank BRI Ceger"
          },
          {
            "name": "Shop&Drive - Cibubur",
            "address": "Jl. Raya Alternatif Cibubur No. 9C",
            "location": "Sebrang Cibubur Point Automotive Centre/Deretan Restoran Hanamasa dan sebelah Laboratorium Prodia"
          },
          {
            "name": "Shop&Drive - Cijantung",
            "address": "Jl. Raya Bogor Km. 24 No. 61, Ciracas",
            "location": "Depan Sekolah Pb Sudirman, dekat Pool Bus Mayasari Bakti"
          },
          {
            "name": "Shop&Drive - Cipinang Jaya",
            "address": "Jl. Raya Cipinang Jaya No.45 B",
            "location": "Depan Perumahan Cipinang Elok, samping Bank BNI "
          },
          {
            "name": "Shop&Drive - Dermaga",
            "address": "Jl. Duren Sawit Raya Blok B.5 Kav. No. 2 B, Klender",
            "location": "100 meter dari Apotik Kimia Farma Dermaga"
          },
          {
            "name": "Shop&Drive - Dewi Sartika",
            "address": "Jl. Dewi Sartika No.191, Cawang",
            "location": "Sebelah Kantor Pajak Cawang"
          },
          {
            "name": "Shop&Drive - Lubang Buaya",
            "address": "Jl. Pondok Gede Raya No. 27. Lubang Buaya",
            "location": "100 meter dari Monumen Pancasila Sakti"
          },
          {
            "name": "Shop&Drive - Matraman",
            "address": "Jl. Matraman Raya No.89, Palmeriam",
            "location": "Depan Berlan, Samping Gedung Usayana"
          },
          {
            "name": "Shop&Drive - Penggilingan",
            "address": "Jl. Penggilingan Raya No.49. RT.002 RW.007, Cakung",
            "location": "Sebelah pabrik Suzuki Motor"
          },
          {
            "name": "Shop&Drive - Pondok Kelapa",
            "address": "Jl. Raya Pondok Kelapa, Blok F1 no. 1",
            "location": "Dari arah Kali Malang sampai Lampu Merah Lampiri (100 Meter Dari Burgergrill) belok kanan"
          },
          {
            "name": "Shop&Drive - Raden Inten",
            "address": "Jl. Raden Inten II, Duren Sawit",
            "location": "Sebelah Pom Bensin Raden Inten (SPBU 34.134.10)"
          }
        ]
      },
      {
        "id": 4,
        "city": "Jakarta Pusat",
        "list": [
          {
            "name": "Shop&Drive - Bendungan Hilir ",
            "address": "Jl. Bendungan Hilir Raya No. 104",
            "location": "Samping PHD Bendungan Hilir"
          },
          {
            "name": "Shop&Drive - Cempaka Putih",
            "address": "Jl. Cempaka Putih Raya No. 19",
            "location": "Samping Obong Steak"
          },
          {
            "name": "Shop&Drive - Cideng",
            "address": "Jl. Cideng Barat Raya No. 75",
            "location": "Setelah Underpas Tanah Abang, sebelah kiri"
          },
          {
            "name": "Shop&Drive - Garuda",
            "address": "Jl. Raya Garuda No. 77. Kemayoran",
            "location": "Setelah rell arah Jiung, ada disebelah kiri"
          },
          {
            "name": "Shop&Drive - Hasyim Ashari",
            "address": "Jl. K.H. Hasyim Ashari No. 37-A",
            "location": "Deretan Hotel Losari Roxy, seberang King Photo"
          },
          {
            "name": "Shop&Drive - Industri",
            "address": "Jl. Industri Raya No. 21 C, Kemayoran",
            "location": "Belakang Hotel Horizon di depan Orchard Hotel"
          },
          {
            "name": "Shop&Drive - Kramat Kwitang",
            "address": "Jl. Kramat Raya No. 62, Kwitang",
            "location": "Sebelah gudang Sharp electronics (ada plang besar), sebelum flyover Senen ada di sebelah kiri"
          },
          {
            "name": "Shop&Drive - Mega Glodok Kemayoran ",
            "address": "Kios Lantai 5 Blok. A17 No. 2, Mega Glodok Kemayoran, Kota Baru Bandar Kemayoran",
            "location": "MGK lantai 5 Otomotif Zone"
          },
          {
            "name": "Shop&Drive - Pasar Baru (Samanhudi)",
            "address": "Jl. H. Samanhudi No.71 - Pasar Baru",
            "location": "Belakang Pasar Baru"
          },
          {
            "name": "Shop&Drive - Percetakan Negara ",
            "address": "Jl. Percetakan Negara Raya No. 48 A, Rawasari",
            "location": "Depan Gedung Percetakan"
          },     
        ]
      },
      {
        "id": 5,
        "city": "Bogor",
        "list": [
          {
            "name": "Shop&Drive - Bojongkulur, Bogor",
            "address": "Jl. Letda Natsir No.77, Bojongkulur - Gunung Putri",
            "location": "dekat Villa Nusa Indah 2"
          },
          {
            "name": "Shop&Drive - Cibinong, Bogor",
            "address": "Perum Bumi Cibinong Endah  A1 No. 1, Sukahati - Cibinong",
            "location": "di belakang Pemkot Bogor"
          },
          {
            "name": "Shop&Drive - Gedong Sawah, Bogor",
            "address": "Jl. Gedong Sawah II No. 10. Bogor Tengah",
            "location": "di belakang Hotel Salak"
          },
          {
            "name": "Shop&Drive - city Wisata",
            "address": "Jl. Alternatif Cibubur, Ruko Transyogi no. 1, Cibubur Country",
            "location": "dari perempatan Cikeas arah Jakarta kurang lebih 500 M kiri jalan atau depan Perumahan Griya Nusantara"
          },
          {
            "name": "Shop&Drive - city Wisata 2",
            "address": "Ruko Canadian Broadway Blok CBF No. 36, Limusnunggal, Cileungsi",
            "location": "Depan Indomart perum city wisata dari pintu keluar Jl. Narogong"
          },
          {
            "name": "Shop&Drive - Mayor Oking Baru, Bogor",
            "address": "Jl. Mayor Oking Raya, RT 003 RW 03, Ciriung, Cibinong",
            "location": "di Atmajaya Ciriung, seberang PT. Daehan"
          },
          {
            "name": "Shop&Drive - Pahlawan, Bogor",
            "address": "Jl. Pahlawan No. 61 B, Bondongan, Bogor Selatan",
            "location": ""
          },
          {
            "name": "Shop&Drive - Pajajaran, Bogor",
            "address": "Jl. Pajajaran Raya No.27, Babakan",
            "location": "di depan Hotel Pangrango 2, disamping Domino'S Pizza"
          },
          {
            "name": "Shop&Drive - Pandu, Bogor",
            "address": "Perumahan Indraprasta II Jl. Pandu Raya No.185",
            "location": "di Perempatan Indomart Tanah Baru"
          },
          {
            "name": "Shop&Drive - Sentul, Bogor",
            "address": "Jl. Alternatif Sentul RT.04 RW.10, Sukaraja, Cijujung, Bogor",
            "location": "di samping Indomaret Plus"
          },
          {
            "name": "Shop&Drive - Sholeh Iskandar, Bogor",
            "address": "Jl. KH. Sholeh Iskandar No. 476 H-I, Kedung Badak, Tanah Sereal",
            "location": "dari arah Tol menuju Parung, sebelum Mitra10 kiri jalan setelah Adira"
          },
          {
            "name": "Shop&Drive - Sukasari, Bogor",
            "address": "Jl. Sukasari I No. 2 C-D, Sukasari - Bogor Timur",
            "location": "arah ke Asinan Gedong Dalem, Baby Shop atau arah ke Pasar Gemrong"
          },
          {
            "name": "Shop&Drive Keradenan",
            "address": "Jl. Raya Pemda Rt.04 Rw.012 Kedung Halang, Bogor Utara Jawa Barat",
            "location": "Sebelah pintu masuk gerbang Villa Bogor Indah"
          },
          {
            "name": "Shop&Drive Sindang Barang, Bogor",
            "address": "Jl. Ibrahim Adji No.159 E, RT.002, RW.004, Loji, Bogor Barat",
            "location": "depan komplek perumahanpPertanian loji"
          },
          {
            "name": "Super Shop&Drive Tajur,Bogor",
            "address": "Jl. Raya Wangun No.242, Sindangsari, Bogor Timur",
            "location": "Sebelah Indomaret, depan pabrik N. Sefa, dekat Hotel Margajaya"
          }
        ]
      },
      {
        "id": 6,
        "city": "Depok",
        "list": [
          {
            "name": "Shop&Drive - Bojongsari, Depok",
            "address": "Jl. Bojongsari Raya No. 43 RT. 01 RW. 04, Bojongsari",
            "location": ""
          },
          {
            "name": "Shop&Drive - Cinere, Depok",
            "address": "Jl. Cinere Raya Blok NB - 13, Cinere, limo, Depok",
            "location": "Dekat dengan Polsek Cinere, samping TK AL – Biru"
          },
          {
            "name": "Shop&Drive - Citayam, Depok",
            "address": "Jl. Raya Citayam No.12 B, Pancoran Mas",
            "location": "Seberang dealer Yamaha"
          },
          {
            "name": "Shop&Drive - Kelapa Dua, Depok",
            "address": "Jalan Akses UI (Universitas Indonesia) No. 41, Cimanggis, Depok",
            "location": "Depan pom bensin Brimob Kelapa Dua"
          },
          {
            "name": "Shop&Drive - Nusantara, Depok",
            "address": "Jl. Nusantara Raya No. 24, RT 003 RW 013, Beji",
            "location": "100 meter dari pertigaan Dewi Sartika sebelah kanan jalan"
          },
          {
            "name": "Shop&Drive - Radar Auri, Depok",
            "address": "Jl. Radar Auri No. 13, Cimanggis",
            "location": "Dekat RS. Ibu dan Anak"
          },
          {
            "name": "Shop&Drive - Sawangan, Depok",
            "address": "Jl. Sawangan Raya No. 21 RT.002 RW.009, Pancoran Mas",
            "location": "Dekat Polsek Mampang)"
          },
          {
            "name": "Shop&Drive - Sentosa, Depok",
            "address": "Jl. Sentosa Raya No. 1",
            "location": "Dekat Sekolah Tugu Ibu"
          },
          {
            "name": "Shop&Drive - Tapos, Depok",
            "address": "Jl. Raya Cimpaeun Tapos, RT.01 RW.03, Cimpaeun, Tapos - Depok",
            "location": "Depan jalan Kiray/One mart"
          },
          {
            "name": "Shop&Drive Margonda Baru, Depok",
            "address": "Jl. Margonda Raya No. 428, Pondok Cina, Beji",
            "location": ""
          }
        ]
      },
      {
        "id": 7,
        "city": "Tanggerang",
        "list": [
          {
            "name": "Shop&Drive - Bhayangkara, Tangerang",
            "address": "Jl. Bhayangkara No. 88, Paku Jaya, Serpong",
            "location": "1 KM dari Pusdiklat Tangerang ke arah Bintaro"
          },
          {
            "name": "Shop&Drive - Bintaro Sektor 9 Baru, Tangerang Selatan",
            "address": "Jl. Jend. Sudirman Blok J No. 5, Bintaro Jaya Sektor IX, Pondok Pucung",
            "location": "Seberang Mc Donald Bintaro Jaya Sektor IX"
          },
          {
            "name": "Shop&Drive - Bintaro Sektor III, Tangerang Selatan",
            "address": "Jl. Bintaro Raya Blok DD 12 No. 1 A, Sektor III A, Bintaro Jaya",
            "location": ""
          },
          {
            "name": "Shop&Drive - Ciater, Tangerang Selatan",
            "address": "Jl. Lingkar Timur BSD, Kampung Ciater, Rawa Mekar Jaya, Serpong",
            "location": "Dekat pom bensin Shell"
          },
          {
            "name": "Shop&Drive - Cipondoh Baru, Tangerang",
            "address": "Jl. KH. Hasyim Ashari No. 28 A-B, Porisplawad Indah, Cipondoh",
            "location": "Depan perumahan Banjar Wijaya (gerbang depan)"
          },
          {
            "name": "Shop&Drive - Ciputat, Tangerang",
            "address": "Jl. Ir. H. Juanda No. 60, Kampung Pisangan, Ciputat",
            "location": "Dekat Hotel Ciputat"
          },
          {
            "name": "Shop&Drive - Citra Raya, Tangerang",
            "address": "Ruko Melia Residence Blok X.02 No. 23R, Perumahan Citra Raya, Mekarbakti",
            "location": "Di dalam perumahan Citra Raya"
          },
          {
            "name": "Shop&Drive - Gading Serpong 2, Tangerang Selatan",
            "address": "Ruko Glaze 2 Blok B No. 19, Gading Serpong",
            "location": ""
          },
          {
            "name": "Shop&Drive - Gading Serpong 3, Tangerang Selatan",
            "address": "Ruko Paramount Mendrisio 3 Blok B No. 55, Gading Serpong",
            "location": ""
          },
          {
            "name": "Shop&Drive - Gading Serpong, Tangerang",
            "address": "Jl. Boulevard Gading Serpong Blok AA-3 No. 43",
            "location": "Seberang Holland Bakery"
          },
          {
            "name": "Shop&Drive - Jombang, Tangerang Selatan",
            "address": "Jl. Raya Jombang No. 27, Pondok Kacang Timur",
            "location": "Dekat Perumahan Villa Bintaro Regency atau bersebelahan dengan yayasan Al Mubarak"
          },
          {
            "name": "Shop&Drive - Karawaci 2, Tangerang",
            "address": "Jl. Imam Bonjol No.88 B, Karawaci",
            "location": "Sebrang Pom Bensin Imam Bonjol Karawaci"
          },
          {
            "name": "Shop&Drive - Karawaci, Tangerang",
            "address": "Komp. Ruko Borobudur Blok.C No.9-10, Jl. Kalasan Raya, Perum 2, Karawaci",
            "location": "Seberang Indomaret"
          },
          {
            "name": "Shop&Drive - Mencong, Tangerang",
            "address": "Jl. H. Mencong (Cipto Mangunkusumo) No. 59-60 Paninggilan Ciledug - Tanggerang city",
            "location": "Jalan Mencong samping SMA Yapera, seberang TPU Al Maarif Paninggilan"
          },
          {
            "name": "Shop&Drive - Pamulang, Tangerang",
            "address": "Jl. Siliwangi No. 88 Pondok Benda, Pamulang",
            "location": "Seberang PLN Pamulang"
          },
          {
            "name": "Shop&Drive - Pinang, Tangerang",
            "address": "Jl. KH. Hasyim Ashari No. 141, Pinang",
            "location": "Dekat Perumahan Graha Raya"
          },
          {
            "name": "Shop&Drive - Pondok Cabe, Tangerang",
            "address": "Jl. Raya Pondok Cabe No. 11, Desa Pondok Cabe Udik, Pamulang",
            "location": "Jalan raya depan Kampus Poltek Swadharma"
          },
          {
            "name": "Shop&Drive - Pondok Kacang, Tangerang",
            "address": "Jl. Raden Fatah No. 35 B, Parung Serab, Ciledug",
            "location": "Samping Suzuki atau dekat lampu merah Mencong"
          },
          {
            "name": "Shop&Drive - Poris, Tangerang",
            "address": "Jl. Maulana Hasanudin No. 8, Cipondoh",
            "location": "Dekat stasiun Poris"
          },
          {
            "name": "Shop&Drive - Serpong, Tangerang",
            "address": "Jl. Pahlawan Seribu No. 8 H, Serpong",
            "location": "Samping SPBU Total / Seberang ITC Serpong)"
          },
          {
            "name": "Shop&Drive - Taman Tekno, Tangerang",
            "address": "Jl. Rawa Buntu Raya No.61A, Ciater - Serpong",
            "location": "Samping Rumah Makan Pecel Madiun"
          },
          {
            "name": "Shop&Drive - Thamrin, Tangerang",
            "address": "Jl. M.H. Thamrin No. 18 A, Tangerang",
            "location": "Dekat SPBU Warung Mangga / Tifico"
          },
          {
            "name": "Shop&Drive M. Toha Tangerang",
            "address": "Jl. Moh. Toha Km. 3, No.244, Periuk, Tangerang",
            "location": ""
          },
          {
            "name": "Shop&Drive Merdeka, Tangerang",
            "address": "Jl. Merdeka No. 51, Sukajadi, Karawaci",
            "location": ""
          },
          {
            "name": "Super Shop&Drive Cirendeu",
            "address": "Jl. Raya Cirendeu No.12, RT. 03 RW. 01, Cirendeu, Ciputat, Tangerang",
            "location": "Samping Bank BCA Kc Cirendeu"
          }
        ]
      },
      {
        "id": 8,
        "city": "Bekasi",
        "list": [
          {
            "name": "Super Shop&Drive Jatiwaringin",
            "address": "Jl. Raya Jatiwaringin No.125 Pondok Gede Bekasi",
            "location": "Dekat Dengan Giant Jatiwaringin"
          },
          {
            "name": "Shop&Drive Kranggan, Bekasi",
            "address": "Jl. Kranggan Raya No. 1 A, RT 002 RW 005, Jatisampurna - Bekasi",
            "location": ""
          },
          {
            "name": "Shop&Drive Jababeka 2, Cikarang",
            "address": "Jl. Niaga Raya CC 5 No. 5, Pasirsari, Cikarang Selatan",
            "location": ""
          },
          {
            "name": "Shop&Drive - Teuku Umar, Cibitung, Bekasi",
            "address": "Jl. Teuku Umar Raya Km. 43, Wanasari",
            "location": "100 M setelah Pasar Induk Cibitung arah ke Tambun, adanya di sebelah kanan"
          },
          {
            "name": "Shop&Drive - Summarecon, Bekasi",
            "address": "Jl. Perjuangan No. 16, Marga Mulya, Summarecon",
            "location": "Dari Summarecon Mal Bekasi, menuju pintu keluar belakang arah stasiun, seberang kali"
          },
          {
            "name": "Shop&Drive - Pekayon, Bekasi",
            "address": "Jl. A. Yani No. 2, RT 005 RW 001, Margajaya, Bekasi Selatan",
            "location": "200 meter dari depan Bekasi Square ke arah Rawa Panjang"
          },
          {
            "name": "Shop&Drive - Lippo, Cikarang",
            "address": "Jl. Cibarusah Raya No. 32 E, Sukaresmi – Cikarang",
            "location": "Ddepan kantor Kepala Desa Sukaresmi, sebelum Pasar Sentral dari arah Lippo Cikarang, belakang kawasan industri EJIP"
          },
          {
            "name": "Shop&Drive - Kartini, Bekasi",
            "address": "Jl. RA. Kartini No. 32, Margahayu, Bekasi Timur",
            "location": "Sebelah RS. Kartini, atau seberang pom bensin"
          },
          {
            "name": "Shop&Drive - Jatiwarna, Bekasi",
            "address": "Jl. Hankam Raya No.1A, Jatiwarna",
            "location": "200 Meter dari pintu Tol Jati Warna ke arah Pondok Gede"
          },
          {
            "name": "Shop&Drive - Jatimakmur, Bekasi",
            "address": "Jl. Raya Jatimakmur No. 69",
            "location": "Depan Dealer Suzuki Mobil Pondok Gede"
          },
          {
            "name": "Shop&Drive - Jatibening, Bekasi",
            "address": "Jl. Raya Caman Ruko Bougenville B-2, Jatibening",
            "location": "Samping Taman Bougenville / 100 meter, samping Giant Caman"
          },
          {
            "name": "Shop&Drive - Jatiasih Baru, Bekasi",
            "address": "Jl. Swatantra No. 28, Jatiasih",
            "location": "200 meter dari Pasar Jatiasih ke arah Pondok Gede Permai"
          },
          {
            "name": "Shop&Drive - Jababeka, Cikarang",
            "address": "Ruko Sunter Niaga Mas Blok C.3 No. 7, Jl. Tarum Barat 2, Jaya Mukti, Cikarang Pusat",
            "location": "Dekat Pasar Bersih Cikarang Baru"
          },
          {
            "name": "Shop&Drive - Imam Bonjol, Cikarang - Bekasi",
            "address": "Jl. Imam Bonjol No. 15, Cikarang Barat",
            "location": "Sebelum RS. Karya Medika 1, atau di seberang Fajar Paper"
          },
          {
            "name": "Shop&Drive - Harapan Mulya, Bekasi",
            "address": "Jl. Jend. Sudirman Km.32, RT.001 RW.001, Harapan Mulya",
            "location": "50 Meter sebelum Fly Over Summarecon sebelah Daihatsu Bekasi"
          },
          {
            "name": "Shop&Drive - Harapan Indah, Bekasi",
            "address": "Ruko Griya Harapan Permai Blok AB2 No. 10",
            "location": "Sebrang gerbang Sentra Otomotif Harapan Indah"
          },
          {
            "name": "Shop&Drive - Harapan Indah 2, Bekasi",
            "address": "Ruko Commercial Park 2.1 Nomor 10, Harapan Indah 2",
            "location": ""
          },
          {
            "name": "Shop&Drive - Grand Wisata, Bekasi",
            "address": "Jl. Legenda Raya, Kampung Kali Jambe, Desa Lambangsari RT. 004 RW. 004 - Tambun",
            "location": ""
          },
          {
            "name": "Shop&Drive - Galaxi, Bekasi",
            "address": "Ruko Villa Galaxi, Jl. Pulo Ribung Blok AE No.99",
            "location": "50 M samping Kantor Kecamatan Bekasi Selatan"
          },
          {
            "name": "Shop&Drive - Bulak Kapal, Bekasi",
            "address": "Jl. Ir. H. Juanda No.183",
            "location": "Depan pom bensin Bulak Kapal, dekat plang selamat jalan Bekasi"
          },
          {
            "name": "Shop&Drive - Bintara, Bekasi",
            "address": "Jl. Bintara Raya No. 8 H , Ruko Bintara Bisnis Centre, Kec. Bekasi Barat",
            "location": "Di depan Pom Bensin Bintara"
          },
        ]
      }
    ]
  }
]